[
  {
    "id": 8,
    "name": "Vokzalna",
    "coord": {
      "lat": 50.44139,
      "lng": 30.489041
    },
    "connections": [
      9
    ]
  },
  {
    "id": 9,
    "name": "Universytet",
    "coord": {
      "lat": 50.442925,
      "lng": 30.503718
    },
    "connections": [
      8,
      10
    ]
  },
  {
    "id": 10,
    "name": "Teatralna",
    "coord": {
      "lat": 50.444851,
      "lng": 30.516073
    },
    "connections": [
      9,
      11,
      40
    ]
  },
  {
    "id": 11,
    "name": "Khreshchatyk",
    "coord": {
      "lat": 50.447056,
      "lng": 30.525361
    },
    "connections": [
      10,
      12,
      26
    ]
  },
  {
    "id": 12,
    "name": "Arsenalna",
    "coord": {
      "lat": 50.443017,
      "lng": 30.547733
    },
    "connections": [
      11
    ]
  },
  {
    "id": 25,
    "name": "Poshtova Ploshcha",
    "coord": {
      "lat": 50.4589633,
      "lng": 30.5247585
    },
    "connections": [
      26
    ]
  },
  {
    "id": 26,
    "name": "Maidan Nezalezhnosti",
    "coord": {
      "lat": 50.450878,
      "lng": 30.5237438
    },
    "connections": [
      25,
      27,
      11
    ]
  },
  {
    "id": 27,
    "name": "Ploshcha Lva Tolstoho",
    "coord": {
      "lat": 50.440075,
      "lng": 30.518021
    },
    "connections": [
      26,
      28,
      41
    ]
  },
  {
    "id": 28,
    "name": "Olimpiiska",
    "coord": {
      "lat": 50.4321543,
      "lng": 30.516367
    },
    "connections": [
      27,
      29
    ]
  },
  {
    "id": 29,
    "name": "Palats \"Ukrayina\"",
    "coord": {
      "lat": 50.421186,
      "lng": 30.520611
    },
    "connections": [
      28
    ]
  },
  {
    "id": 37,
    "name": "Syrets",
    "coord": {
      "lat": 50.476218,
      "lng": 30.430678
    },
    "connections": [
      38
    ]
  },
  {
    "id": 38,
    "name": "Dorohozhychi",
    "coord": {
      "lat": 50.473119,
      "lng": 30.452247
    },
    "connections": [
      37,
      39
    ]
  },
  {
    "id": 39,
    "name": "Lukianivska",
    "coord": {
      "lat": 50.46117899999999,
      "lng": 30.483671
    },
    "connections": [
      38,
      40
    ]
  },
  {
    "id": 40,
    "name": "Zoloti Vorota",
    "coord": {
      "lat": 50.44615899999999,
      "lng": 30.515426
    },
    "connections": [
      39,
      41,
      10
    ]
  },
  {
    "id": 41,
    "name": "Palats Sportu",
    "coord": {
      "lat": 50.439647,
      "lng": 30.519533
    },
    "connections": [
      40,
      42,
      27
    ]
  },
  {
    "id": 42,
    "name": "Klovska",
    "coord": {
      "lat": 50.435902,
      "lng": 30.533423
    },
    "connections": [
      41,
      43
    ]
  },
  {
    "id": 43,
    "name": "Pecherska",
    "coord": {
      "lat": 50.426553,
      "lng": 30.54012
    },
    "connections": [
      42
    ]
  }
]